{"type":"Feature","properties":{"Name":"Nickerie"},"geometry":{"type":"Point","coordinates":[-56.98846177599995,5.939007536000076]}}
{"type":"Feature","properties":{"Name":"Apura"},"geometry":{"type":"Point","coordinates":[-57.16438523499994,5.183592207000061]}}
{"type":"Feature","properties":{"Name":"Totness"},"geometry":{"type":"Point","coordinates":[-56.32923733399997,5.879798677000053]}}
{"type":"Feature","properties":{"Name":"Kuruni"},"geometry":{"type":"Point","coordinates":[-57.34571128299996,3.370678141000042]}}
{"type":"Feature","properties":{"Name":"Kwamamasamutu"},"geometry":{"type":"Point","coordinates":[-56.78781759399993,2.355649091000032]}}
{"type":"Feature","properties":{"Name":"Sipaliwini"},"geometry":{"type":"Point","coordinates":[-56.135180746999936,1.991923241000052]}}
{"type":"Feature","properties":{"Name":"Alalapadu"},"geometry":{"type":"Point","coordinates":[-56.334831717999975,2.512038045000054]}}
{"type":"Feature","properties":{"Name":"Pelelu Tepu"},"geometry":{"type":"Point","coordinates":[-55.71868431799999,3.159556389000045]}}
{"type":"Feature","properties":{"Name":"Palumeu"},"geometry":{"type":"Point","coordinates":[-55.44425451699993,3.345919155000047]}}
{"type":"Feature","properties":{"Name":"Apetina"},"geometry":{"type":"Point","coordinates":[-55.051031905999935,3.510860506000029]}}
{"type":"Feature","properties":{"Name":"Kawemhakan"},"geometry":{"type":"Point","coordinates":[-54.025425379999945,3.411802975000057]}}
{"type":"Feature","properties":{"Name":"Atjoni"},"geometry":{"type":"Point","coordinates":[-55.372436247999985,4.488817682000047]}}
{"type":"Feature","properties":{"Name":"Tutubuka"},"geometry":{"type":"Point","coordinates":[-55.40136490499998,4.374391736000064]}}
{"type":"Feature","properties":{"Name":"Gujaba"},"geometry":{"type":"Point","coordinates":[-55.41158547499998,4.312623944000052]}}
{"type":"Feature","properties":{"Name":"Pikinslee"},"geometry":{"type":"Point","coordinates":[-55.44236475799994,4.25168194500003]}}
{"type":"Feature","properties":{"Name":"Botopasi"},"geometry":{"type":"Point","coordinates":[-55.443148890999964,4.221436834000031]}}
{"type":"Feature","properties":{"Name":"Dang"},"geometry":{"type":"Point","coordinates":[-55.431722959999945,4.193544121000059]}}
{"type":"Feature","properties":{"Name":"Malobi"},"geometry":{"type":"Point","coordinates":[-55.42567393799993,4.15859421600004]}}
{"type":"Feature","properties":{"Name":"Semoisi"},"geometry":{"type":"Point","coordinates":[-55.441939085999934,4.050495951000073]}}
{"type":"Feature","properties":{"Name":"Asindoopo"},"geometry":{"type":"Point","coordinates":[-55.47016785599993,4.001879736000035]}}
{"type":"Feature","properties":{"Name":"Goddo"},"geometry":{"type":"Point","coordinates":[-55.47498466999997,4.014985951000028]}}
{"type":"Feature","properties":{"Name":"Kajana"},"geometry":{"type":"Point","coordinates":[-55.56813642499998,3.905045562000055]}}
{"type":"Feature","properties":{"Name":"Gonini Mofo"},"geometry":{"type":"Point","coordinates":[-54.39130751599998,4.181846675000031]}}
{"type":"Feature","properties":{"Name":"Dritabiki"},"geometry":{"type":"Point","coordinates":[-54.67396719799996,4.112983361000033]}}
{"type":"Feature","properties":{"Name":"Granbori"},"geometry":{"type":"Point","coordinates":[-54.837883157999954,3.810236681000049]}}
{"type":"Feature","properties":{"Name":"Nason"},"geometry":{"type":"Point","coordinates":[-54.46865110299996,4.820904880000057]}}
{"type":"Feature","properties":{"Name":"Lebi Doti"},"geometry":{"type":"Point","coordinates":[-54.94732115499994,4.662851069000055]}}
{"type":"Feature","properties":{"Name":"Moiwana"},"geometry":{"type":"Point","coordinates":[-54.10973600999995,5.519246868000039]}}
{"type":"Feature","properties":{"Name":"Albina"},"geometry":{"type":"Point","coordinates":[-54.056017931999975,5.498689752000075]}}
{"type":"Feature","properties":{"Name":"Moengo"},"geometry":{"type":"Point","coordinates":[-54.40065353699998,5.61815361400005]}}
{"type":"Feature","properties":{"Name":"Hollandse Kamp"},"geometry":{"type":"Point","coordinates":[-55.199319524999964,5.447757203000037]}}
{"type":"Feature","properties":{"Name":"Powakka"},"geometry":{"type":"Point","coordinates":[-55.07891921299995,5.449763825000048]}}
{"type":"Feature","properties":{"Name":"Nyun Koffiekamp"},"geometry":{"type":"Point","coordinates":[-55.21219468099997,5.075778061000051]}}
{"type":"Feature","properties":{"Name":"Brownsweg"},"geometry":{"type":"Point","coordinates":[-55.16668243299995,5.018458664000036]}}
{"type":"Feature","properties":{"Name":"Bigi Poika"},"geometry":{"type":"Point","coordinates":[-55.50453855999996,5.408411105000027]}}
{"type":"Feature","properties":{"Name":"Pikin Saron"},"geometry":{"type":"Point","coordinates":[-55.359366388999945,5.389645527000027]}}
{"type":"Feature","properties":{"Name":"Matta"},"geometry":{"type":"Point","coordinates":[-55.32174466599997,5.452861548000044]}}
{"type":"Feature","properties":{"Name":"Tottikampu"},"geometry":{"type":"Point","coordinates":[-55.40927711499995,5.563521578000064]}}
{"type":"Feature","properties":{"Name":"Lelydorp"},"geometry":{"type":"Point","coordinates":[-55.216458287999956,5.69401980400005]}}
{"type":"Feature","properties":{"Name":"Bernardsdorp"},"geometry":{"type":"Point","coordinates":[-55.204987631999984,5.615301669000075]}}
{"type":"Feature","properties":{"Name":"Bitagolon"},"geometry":{"type":"Point","coordinates":[-56.07577382599993,5.162074974000063]}}
{"type":"Feature","properties":{"Name":"Kaimanston"},"geometry":{"type":"Point","coordinates":[-56.09293319799997,5.102279379000038]}}
{"type":"Feature","properties":{"Name":"Konomerume"},"geometry":{"type":"Point","coordinates":[-56.35857241999997,5.34451410500003]}}
{"type":"Feature","properties":{"Name":"Kwakugron"},"geometry":{"type":"Point","coordinates":[-55.343092781999985,5.247974424000063]}}
{"type":"Feature","properties":{"Name":"Nyun Jacobkondre"},"geometry":{"type":"Point","coordinates":[-55.538607695999985,4.937028303000034]}}
{"type":"Feature","properties":{"Name":"Pusugrunu"},"geometry":{"type":"Point","coordinates":[-55.78836287599995,4.395854056000076]}}
{"type":"Feature","properties":{"Name":"Boslanti"},"geometry":{"type":"Point","coordinates":[-55.78280202099995,4.330925010000044]}}
{"type":"Feature","properties":{"Name":"Godo Holo"},"geometry":{"type":"Point","coordinates":[-54.78724081299998,4.060701519000077]}}
{"type":"Feature","properties":{"Name":"Afobaka"},"geometry":{"type":"Point","coordinates":[-54.992623022999965,4.989598544000046]}}
